<?xml version="1.0" encoding="UTF-8"?>
<kml xmlns="http://earth.google.com/kml/2.0">
  <Document>
    <name>Jenkins Developers</name>
    <description>Jenkins Developers</description>
    <Placemark>
      <name>Jesse Farinacci</name>
      <Point>
        <extrude>1</extrude>
        <altitudeMode>relativeToGround</altitudeMode>
        <coordinates>-73.421116,40.873221</coordinates>
      </Point>
    </Placemark>
    <Placemark>
      <name>Ullrich Hafner</name>
      <Point>
        <extrude>1</extrude>
        <altitudeMode>relativeToGround</altitudeMode>
        <coordinates>11.616180,48.137749</coordinates>
      </Point>
    </Placemark>
    <Placemark>
      <name>Alan Harder (mindless)</name>
      <Point>
        <extrude>1</extrude>
        <altitudeMode>relativeToGround</altitudeMode>
        <coordinates>-122.04242,37.342151</coordinates>
      </Point>
    </Placemark>
    <Placemark>
      <name>Christoph Kutzinski</name>
      <Point>
        <extrude>1</extrude>
        <altitudeMode>relativeToGround</altitudeMode>
        <coordinates>10.005355,53.566108</coordinates>
      </Point>
    </Placemark>
    <Placemark>
      <name>Simon Wiest</name>
      <Point>
        <extrude>1</extrude>
        <altitudeMode>relativeToGround</altitudeMode>
        <coordinates>9.095688,48.459891</coordinates>
      </Point>
    </Placemark>
    <Placemark>
      <name>Seiji Sogabe</name>
      <Point>
        <extrude>1</extrude>
        <altitudeMode>relativeToGround</altitudeMode>
        <coordinates>139.686141,35.612337</coordinates>
      </Point>
    </Placemark>
    <Placemark>
      <name>Andrew Bayer</name>
      <Point>
        <extrude>1</extrude>
        <altitudeMode>relativeToGround</altitudeMode>
        <coordinates>-122.437214,37.771419</coordinates>
      </Point>
    </Placemark>
  </Document>
</kml>
