<?xml version="1.0" encoding="UTF-8"?>
<kml xmlns="http://earth.google.com/kml/2.0">
  <Document>
    <name>Jenkins Developers</name>
    <description>Jenkins Developers</description>
    <Placemark>
      <name>Jesse Farinacci</name>
      <Point>
        <extrude>1</extrude>
        <altitudeMode>relativeToGround</altitudeMode>
        <coordinates>-73.421116,40.873221</coordinates>
      </Point>
    </Placemark>
    <Placemark>
      <name>Ullrich Hafner</name>
      <Point>
        <extrude>1</extrude>
        <altitudeMode>relativeToGround</altitudeMode>
        <coordinates>11.616180,48.137749</coordinates>
      </Point>
    </Placemark>
    <Placemark>
      <name>Alan Harder (mindless)</name>
      <Point>
        <extrude>1</extrude>
        <altitudeMode>relativeToGround</altitudeMode>
        <coordinates>-122.04242,37.342151</coordinates>
      </Point>
    </Placemark>
    <Placemark>
      <name>Christoph Kutzinski</name>
      <Point>
        <extrude>1</extrude>
        <altitudeMode>relativeToGround</altitudeMode>
        <coordinates>10.005355,53.566108</coordinates>
      </Point>
    </Placemark>
    <Placemark>
      <name>Simon Wiest</name>
      <Point>
        <extrude>1</extrude>
        <altitudeMode>relativeToGround</altitudeMode>
        <coordinates>9.095688,48.459891</coordinates>
      </Point>
    </Placemark>
    <Placemark>
      <name>Seiji Sogabe</name>
      <Point>
        <extrude>1</extrude>
        <altitudeMode>relativeToGround</altitudeMode>
        <coordinates>139.686141,35.612337</coordinates>
      </Point>
    </Placemark>
    <Placemark>
      <name>Andrew Bayer</name>
      <Point>
        <extrude>1</extrude>
        <altitudeMode>relativeToGround</altitudeMode>
        <coordinates>-122.437214,37.771419</coordinates>
      </Point>
    </Placemark>
    <Placemark>
      <name>Erick Dovale</name>
      <Point>
        <extrude>1</extrude>
        <altitudeMode>relativeToGround</altitudeMode>
        <coordinates>-79.3840,43.6537</coordinates>
      </Point>
    </Placemark>
    <Placemark>
      <name>Bap</name>
      <Point>
        <extrude>1</extrude>
        <altitudeMode>relativeToGround</altitudeMode>
        <coordinates>-2.583333,51.45</coordinates>
      </Point>
    </Placemark>
    <Placemark>
      <name>Fred G</name>
      <Point>
        <extrude>1</extrude>
        <altitudeMode>relativeToGround</altitudeMode>
        <coordinates>6.960132,50.941313</coordinates>
      </Point>
    </Placemark>
    <Placemark>
      <name>Kiyotaka Oku</name>
      <Point>
        <extrude>1</extrude>
        <altitudeMode>relativeToGround</altitudeMode>
        <coordinates>135.495819,34.676941</coordinates>
      </Point>
    </Placemark>
    <Placemark>
      <name>R. Tyler Croy</name>
      <Point>
        <extrude>1</extrude>
        <altitudeMode>relativeToGround</altitudeMode>
        <coordinates>-122.395734,37.781042</coordinates>
      </Point>
    </Placemark>
    <Placemark>
      <name>Gregory Boissinot</name>
      <Point>
        <extrude>1</extrude>
        <altitudeMode>relativeToGround</altitudeMode>
        <coordinates>2.423998,48.797658</coordinates>
      </Point>
    </Placemark>
    <Placemark>
      <name>Arnaud Héritier</name>
      <Point>
        <extrude>1</extrude>
        <altitudeMode>relativeToGround</altitudeMode>
        <coordinates>2.91451,48.94930</coordinates>
      </Point>
    </Placemark>
    <Placemark>
      <name>Stig Kleppe-Jørgensen</name>
      <Point>
        <extrude>1</extrude>
        <altitudeMode>relativeToGround</altitudeMode>
        <coordinates>10.82032,59.85692</coordinates>
      </Point>
    </Placemark>
    <Placemark>
      <name>Stefan Wolf</name>
      <Point>
        <extrude>1</extrude>
        <altitudeMode>relativeToGround</altitudeMode>
        <coordinates>11.654771,48.186223</coordinates>
      </Point>
    </Placemark>
    <Placemark>
      <name>Olivier Lamy</name>
      <Point>
        <extrude>1</extrude>
        <altitudeMode>relativeToGround</altitudeMode>
        <coordinates>2.314299,48.605089</coordinates>
      </Point>
    </Placemark>
    <Placemark>
      <name>Robert Sandell</name>
      <Point>
        <extrude>1</extrude>
        <altitudeMode>relativeToGround</altitudeMode>
        <coordinates>15.586309,56.161185</coordinates>
      </Point>
    </Placemark>
    <Placemark>
      <name>Tomas Westling</name>
      <Point>
        <extrude>1</extrude>
        <altitudeMode>relativeToGround</altitudeMode>
        <coordinates>13.224610,55.717472</coordinates>
      </Point>
    </Placemark>
    <Placemark>
      <name>Jesse Glick</name>
      <Point>
        <extrude>1</extrude>
        <altitudeMode>relativeToGround</altitudeMode>
        <coordinates>-71.121626,42.423013</coordinates>
      </Point>
    </Placemark>
  </Document>
</kml>
